[{"message": "Created merchant", "code": 201, "objectCreated": {"name": "Merchant 811", "category": "HEALTH", "address": {"street_number": "5384", "street_name": "Main Street", "city": "City 66", "state": "DE", "zip": "57122"}, "geocode": {"lat": -64.948625, "lng": 168.660918}, "creation_date": "2025-10-25", "_id": "68fd2c5e9683f20dd51a4756"}},
{"message": "Created merchant", "code": 201, "objectCreated": {"name": "Merchant 856", "category": "RETAIL", "address": {"street_number": "9410", "street_name": "Third Street", "city": "City 1", "state": "EF", "zip": "65002"}, "geocode": {"lat": -20.58107, "lng": 2.239199}, "creation_date": "2025-10-25", "_id": "68fd2c5e9683f20dd51a4757"}},
{"message": "Created merchant", "code": 201, "objectCreated": {"name": "Merchant 26", "category": "TRAVEL", "address": {"street_number": "4596", "street_name": "Second Street", "city": "City 11", "state": "BC", "zip": "84577"}, "geocode": {"lat": 21.360014, "lng": 97.96301}, "creation_date": "2025-10-25", "_id": "68fd2c5e9683f20dd51a4758"}},
{"message": "Created merchant", "code": 201, "objectCreated": {"name": "Merchant 583", "category": "SERVICES", "address": {"street_number": "8838", "street_name": "Main Street", "city": "City 53", "state": "AB", "zip": "24163"}, "geocode": {"lat": -74.099288, "lng": 84.931644}, "creation_date": "2025-10-25", "_id": "68fd2c5e9683f20dd51a4759"}},
{"message": "Created merchant", "code": 201, "objectCreated": {"name": "Merchant 480", "category": "RETAIL", "address": {"street_number": "2789", "street_name": "Third Street", "city": "City 67", "state": "AB", "zip": "87448"}, "geocode": {"lat": -64.682058, "lng": -97.948555}, "creation_date": "2025-10-25", "_id": "68fd2c5e9683f20dd51a475a"}},
{"message": "Created merchant", "code": 201, "objectCreated": {"name": "Merchant 944", "category": "AUTOMOTIVE", "address": {"street_number": "6444", "street_name": "Third Street", "city": "City 58", "state": "EF", "zip": "17817"}, "geocode": {"lat": -84.204027, "lng": 22.59693}, "creation_date": "2025-10-25", "_id": "68fd2c5e9683f20dd51a475b"}},
{"message": "Created merchant", "code": 201, "objectCreated": {"name": "Merchant 915", "category": "SERVICES", "address": {"street_number": "9057", "street_name": "Main Street", "city": "City 11", "state": "BC", "zip": "62875"}, "geocode": {"lat": 38.559485, "lng": -98.404381}, "creation_date": "2025-10-25", "_id": "68fd2c5e9683f20dd51a475c"}},
{"message": "Created merchant", "code": 201, "objectCreated": {"name": "Merchant 812", "category": "EDUCATION", "address": {"street_number": "4455", "street_name": "Main Street", "city": "City 10", "state": "CD", "zip": "52894"}, "geocode": {"lat": 40.796575, "lng": -126.51292}, "creation_date": "2025-10-25", "_id": "68fd2c5f9683f20dd51a475d"}},
{"message": "Created merchant", "code": 201, "objectCreated": {"name": "Merchant 342", "category": "RETAIL", "address": {"street_number": "2724", "street_name": "Third Street", "city": "City 80", "state": "DE", "zip": "74711"}, "geocode": {"lat": -65.616376, "lng": -86.605335}, "creation_date": "2025-10-25", "_id": "68fd2c5f9683f20dd51a475e"}},
{"message": "Created merchant", "code": 201, "objectCreated": {"name": "Merchant 387", "category": "AUTOMOTIVE", "address": {"street_number": "2830", "street_name": "Second Street", "city": "City 46", "state": "EF", "zip": "59014"}, "geocode": {"lat": -59.504466, "lng": 175.411347}, "creation_date": "2025-10-25", "_id": "68fd2c5f9683f20dd51a475f"}}
]
